{
"type": "FeatureCollection",
"name": "aggdioceses_sf",
"features": [
{ "type": "Feature", "properties": { "diocese_name": "Nachitschewan", "country": "Azerbaijan", "count": 17.0 }, "geometry": { "type": "Point", "coordinates": [ 45.408394, 39.206722 ] } },
{ "type": "Feature", "properties": { "diocese_name": "Stagno/Ston", "country": "Croacia", "count": 10.0 }, "geometry": { "type": "Point", "coordinates": [ 17.6962, 42.83836 ] } },
{ "type": "Feature", "properties": { "diocese_name": "Nueva Segovia", "country": "Philippines", "count": 10.0 }, "geometry": { "type": "Point", "coordinates": [ 120.386795, 17.572964 ] } },
{ "type": "Feature", "properties": { "diocese_name": "Panamá", "country": "Panamá", "count": 7.0 }, "geometry": { "type": "Point", "coordinates": [ -81.306625, 8.309607 ] } },
{ "type": "Feature", "properties": { "diocese_name": "Cartagena", "country": "Colombia", "count": 7.0 }, "geometry": { "type": "Point", "coordinates": [ -75.52712, 10.419584 ] } },
{ "type": "Feature", "properties": { "diocese_name": "Caracas", "country": "Venezuela", "count": 6.0 }, "geometry": { "type": "Point", "coordinates": [ -66.914604, 10.506098 ] } },
{ "type": "Feature", "properties": { "diocese_name": "Bacău", "country": "Romania", "count": 6.0 }, "geometry": { "type": "Point", "coordinates": [ 26.915356, 46.55605 ] } },
{ "type": "Feature", "properties": { "diocese_name": "Tortosa", "country": "Spain", "count": 6.0 }, "geometry": { "type": "Point", "coordinates": [ 0.5207492, 40.81119 ] } },
{ "type": "Feature", "properties": { "diocese_name": "Chiapas", "country": "Mexico", "count": 6.0 }, "geometry": { "type": "Point", "coordinates": [ -92.5, 16.5 ] } },
{ "type": "Feature", "properties": { "diocese_name": "Santorini", "country": "Greece", "count": 5.0 }, "geometry": { "type": "Point", "coordinates": [ 25.395857, 36.404427 ] } },
{ "type": "Feature", "properties": { "diocese_name": "Malacca", "country": "Malaysia", "count": 5.0 }, "geometry": { "type": "Point", "coordinates": [ 102.25072, 2.2001524 ] } },
{ "type": "Feature", "properties": { "diocese_name": "Chiogga", "country": "Italy", "count": 5.0 }, "geometry": { "type": "Point", "coordinates": [ 12.278581, 45.218895 ] } },
{ "type": "Feature", "properties": { "diocese_name": "Perpignan–Elne", "country": "France", "count": 5.0 }, "geometry": { "type": "Point", "coordinates": [ 2.9703352, 42.60159 ] } },
{ "type": "Feature", "properties": { "diocese_name": "Gravina", "country": "Italy", "count": 5.0 }, "geometry": { "type": "Point", "coordinates": [ 15.061763, 37.560368 ] } },
{ "type": "Feature", "properties": { "diocese_name": "Naxos, Andros, Tinos e Mykonos", "country": "Greece", "count": 5.0 }, "geometry": { "type": "Point", "coordinates": [ 25.470757, 37.06001 ] } },
{ "type": "Feature", "properties": { "diocese_name": "Albarracín", "country": "Spain", "count": 5.0 }, "geometry": { "type": "Point", "coordinates": [ -1.4442791, 40.407284 ] } },
{ "type": "Feature", "properties": { "diocese_name": "Sigüenza", "country": "Spain", "count": 5.0 }, "geometry": { "type": "Point", "coordinates": [ -2.642427, 41.067047 ] } },
{ "type": "Feature", "properties": { "diocese_name": "Cagliari", "country": "Italy", "count": 5.0 }, "geometry": { "type": "Point", "coordinates": [ 9.107905, 39.220387 ] } },
{ "type": "Feature", "properties": { "diocese_name": "Borgo San Sepulcro", "country": "Italy", "count": 5.0 }, "geometry": { "type": "Point", "coordinates": [ 11.860462, 43.464024 ] } },
{ "type": "Feature", "properties": { "diocese_name": "Koper", "country": "Slovenia", "count": 5.0 }, "geometry": { "type": "Point", "coordinates": [ 13.730491, 45.547955 ] } },
{ "type": "Feature", "properties": { "diocese_name": "Santa Marta", "country": "Colombia", "count": 5.0 }, "geometry": { "type": "Point", "coordinates": [ -73.88066, 11.086917 ] } },
{ "type": "Feature", "properties": { "diocese_name": "Sucre", "country": "Bolivia", "count": 5.0 }, "geometry": { "type": "Point", "coordinates": [ -65.25943, -19.047726 ] } },
{ "type": "Feature", "properties": { "diocese_name": "Córdoba", "country": "Spain", "count": 5.0 }, "geometry": { "type": "Point", "coordinates": [ -4.7793655, 37.884506 ] } },
{ "type": "Feature", "properties": { "diocese_name": "Minori", "country": "Italy", "count": 5.0 }, "geometry": { "type": "Point", "coordinates": [ 14.624941, 40.652706 ] } },
{ "type": "Feature", "properties": { "diocese_name": "Santo Domingo", "country": "Dominican Republic", "count": 5.0 }, "geometry": { "type": "Point", "coordinates": [ -69.9297, 18.484766 ] } },
{ "type": "Feature", "properties": { "diocese_name": "Santa Cruz de la Sierra", "country": "Bolivia", "count": 4.0 }, "geometry": { "type": "Point", "coordinates": [ -68.92185, -11.0382 ] } },
{ "type": "Feature", "properties": { "diocese_name": "Selymbria", "country": "Turkey", "count": 4.0 }, "geometry": { "type": "Point", "coordinates": [ 28.246922, 41.073204 ] } },
{ "type": "Feature", "properties": { "diocese_name": "Venosa", "country": "Italy", "count": 4.0 }, "geometry": { "type": "Point", "coordinates": [ 15.814863, 40.961323 ] } },
{ "type": "Feature", "properties": { "diocese_name": "Antequera", "country": "Mexico", "count": 4.0 }, "geometry": { "type": "Point", "coordinates": [ -99.146484, 19.431684 ] } },
{ "type": "Feature", "properties": { "diocese_name": "São Tomé and Príncipe", "country": "São Tomé and Príncipe", "count": 4.0 }, "geometry": { "type": "Point", "coordinates": [ 6.731303, 0.3389242 ] } },
{ "type": "Feature", "properties": { "diocese_name": "Sevilla", "country": "Spain", "count": 4.0 }, "geometry": { "type": "Point", "coordinates": [ -5.995317, 37.38863 ] } },
{ "type": "Feature", "properties": { "diocese_name": "Lipari", "country": "Italy", "count": 4.0 }, "geometry": { "type": "Point", "coordinates": [ 14.939662, 38.48137 ] } },
{ "type": "Feature", "properties": { "diocese_name": "Kotor", "country": "Montenegro", "count": 4.0 }, "geometry": { "type": "Point", "coordinates": [ 18.771267, 42.424248 ] } },
{ "type": "Feature", "properties": { "diocese_name": "Verapaz", "country": "Guatemala", "count": 4.0 }, "geometry": { "type": "Point", "coordinates": [ -90.333336, 15.5 ] } },
{ "type": "Feature", "properties": { "diocese_name": "Segovia", "country": "Spain", "count": 4.0 }, "geometry": { "type": "Point", "coordinates": [ -4.1241493, 40.950214 ] } },
{ "type": "Feature", "properties": { "diocese_name": "Zamora", "country": "Spain", "count": 4.0 }, "geometry": { "type": "Point", "coordinates": [ -5.744804, 41.505657 ] } },
{ "type": "Feature", "properties": { "diocese_name": "Acerra", "country": "Italy", "count": 4.0 }, "geometry": { "type": "Point", "coordinates": [ 14.375009, 40.946053 ] } },
{ "type": "Feature", "properties": { "diocese_name": "Orihuela", "country": "Spain", "count": 4.0 }, "geometry": { "type": "Point", "coordinates": [ -0.9466129, 38.09069 ] } },
{ "type": "Feature", "properties": { "diocese_name": "Satriano", "country": "Italy", "count": 4.0 }, "geometry": { "type": "Point", "coordinates": [ 15.558963, 40.545914 ] } },
{ "type": "Feature", "properties": { "diocese_name": "Goa", "country": "India", "count": 4.0 }, "geometry": { "type": "Point", "coordinates": [ 74.08551, 15.300454 ] } },
{ "type": "Feature", "properties": { "diocese_name": "Hebron", "country": "Palestina", "count": 4.0 }, "geometry": { "type": "Point", "coordinates": [ 35.094776, 31.530201 ] } },
{ "type": "Feature", "properties": { "diocese_name": "Trebinje", "country": "Bosnia and Herzegovina", "count": 4.0 }, "geometry": { "type": "Point", "coordinates": [ 18.346882, 42.710796 ] } },
{ "type": "Feature", "properties": { "diocese_name": "Saluzzo", "country": "Italy", "count": 4.0 }, "geometry": { "type": "Point", "coordinates": [ 7.492601, 44.644604 ] } },
{ "type": "Feature", "properties": { "diocese_name": "Osma", "country": "Spain", "count": 4.0 }, "geometry": { "type": "Point", "coordinates": [ -3.0442915, 42.894657 ] } },
{ "type": "Feature", "properties": { "diocese_name": "Manila", "country": "Philippines", "count": 4.0 }, "geometry": { "type": "Point", "coordinates": [ 120.97997, 14.590622 ] } },
{ "type": "Feature", "properties": { "diocese_name": "Asunción", "country": "Paraguay", "count": 4.0 }, "geometry": { "type": "Point", "coordinates": [ -57.63112, -25.295992 ] } },
{ "type": "Feature", "properties": { "diocese_name": "Elphin", "country": "Ireland", "count": 4.0 }, "geometry": { "type": "Point", "coordinates": [ -8.475136, 54.272068 ] } },
{ "type": "Feature", "properties": { "diocese_name": "Cochin", "country": "India", "count": 4.0 }, "geometry": { "type": "Point", "coordinates": [ 76.25366, 9.963387 ] } },
{ "type": "Feature", "properties": { "diocese_name": "Plasencia", "country": "Spain", "count": 4.0 }, "geometry": { "type": "Point", "coordinates": [ -6.0902596, 40.030293 ] } },
{ "type": "Feature", "properties": { "diocese_name": "Astorga", "country": "Spain", "count": 4.0 }, "geometry": { "type": "Point", "coordinates": [ -6.052902, 42.455357 ] } },
{ "type": "Feature", "properties": { "diocese_name": "Clonfert", "country": "Ireland", "count": 3.0 }, "geometry": { "type": "Point", "coordinates": [ -8.569059, 53.198162 ] } },
{ "type": "Feature", "properties": { "diocese_name": "Sant’Agata de’ Goti", "country": "Italy", "count": 3.0 }, "geometry": { "type": "Point", "coordinates": [ 14.503793, 41.08854 ] } },
{ "type": "Feature", "properties": { "diocese_name": "Angra", "country": "Portugal", "count": 3.0 }, "geometry": { "type": "Point", "coordinates": [ -27.219559, 38.659317 ] } },
{ "type": "Feature", "properties": { "diocese_name": "Alghero", "country": "Italy", "count": 3.0 }, "geometry": { "type": "Point", "coordinates": [ 8.315147, 40.56002 ] } },
{ "type": "Feature", "properties": { "diocese_name": "Modruš", "country": "Croacia", "count": 3.0 }, "geometry": { "type": "Point", "coordinates": [ 15.247179, 45.14741 ] } },
{ "type": "Feature", "properties": { "diocese_name": "Carolense/Yucatán", "country": "Mexico", "count": 3.0 }, "geometry": { "type": "Point", "coordinates": [ -89.6237, 20.96714 ] } },
{ "type": "Feature", "properties": { "diocese_name": "Santiago de Compostela", "country": "Spain", "count": 3.0 }, "geometry": { "type": "Point", "coordinates": [ -8.54586, 42.88042 ] } },
{ "type": "Feature", "properties": { "diocese_name": "Caorle", "country": "Italy", "count": 3.0 }, "geometry": { "type": "Point", "coordinates": [ 12.888007, 45.599003 ] } },
{ "type": "Feature", "properties": { "diocese_name": "San Juan de Puerto Rico", "country": "Puerto Rico", "count": 3.0 }, "geometry": { "type": "Point", "coordinates": [ -66.11667, 18.4653 ] } },
{ "type": "Feature", "properties": { "diocese_name": "Agrigento", "country": "Italy", "count": 3.0 }, "geometry": { "type": "Point", "coordinates": [ 13.57465, 37.312298 ] } },
{ "type": "Feature", "properties": { "diocese_name": "Sorrento", "country": "Italy", "count": 3.0 }, "geometry": { "type": "Point", "coordinates": [ 14.374836, 40.624905 ] } },
{ "type": "Feature", "properties": { "diocese_name": "Korčula", "country": "Croacia", "count": 3.0 }, "geometry": { "type": "Point", "coordinates": [ 16.913477, 42.943783 ] } },
{ "type": "Feature", "properties": { "diocese_name": "León (Nicaragua)", "country": "Nicaragua", "count": 3.0 }, "geometry": { "type": "Point", "coordinates": [ -86.87735, 12.434538 ] } },
{ "type": "Feature", "properties": { "diocese_name": "Salona", "country": "Greece", "count": 3.0 }, "geometry": { "type": "Point", "coordinates": [ 22.378384, 38.52727 ] } },
{ "type": "Feature", "properties": { "diocese_name": "Barbastro", "country": "Spain", "count": 3.0 }, "geometry": { "type": "Point", "coordinates": [ 0.1273884, 42.03529 ] } },
{ "type": "Feature", "properties": { "diocese_name": "Trevico", "country": "Italy", "count": 3.0 }, "geometry": { "type": "Point", "coordinates": [ 15.233449, 41.04842 ] } },
{ "type": "Feature", "properties": { "diocese_name": "Morelia", "country": "Mexico", "count": 3.0 }, "geometry": { "type": "Point", "coordinates": [ -101.19238, 19.702711 ] } },
{ "type": "Feature", "properties": { "diocese_name": "Modena", "country": "Italy", "count": 3.0 }, "geometry": { "type": "Point", "coordinates": [ 10.9255705, 44.64589 ] } },
{ "type": "Feature", "properties": { "diocese_name": "Guadalajara", "country": "Mexico", "count": 3.0 }, "geometry": { "type": "Point", "coordinates": [ -103.347, 20.676144 ] } },
{ "type": "Feature", "properties": { "diocese_name": "Vieste", "country": "Italy", "count": 3.0 }, "geometry": { "type": "Point", "coordinates": [ 16.179178, 41.88276 ] } },
{ "type": "Feature", "properties": { "diocese_name": "Osimo", "country": "Italy", "count": 3.0 }, "geometry": { "type": "Point", "coordinates": [ 13.482407, 43.486137 ] } },
{ "type": "Feature", "properties": { "diocese_name": "Amberes", "country": "Belgium", "count": 3.0 }, "geometry": { "type": "Point", "coordinates": [ 4.3997083, 51.22111 ] } },
{ "type": "Feature", "properties": { "diocese_name": "Lavello", "country": "Italy", "count": 3.0 }, "geometry": { "type": "Point", "coordinates": [ 15.790762, 41.045624 ] } },
{ "type": "Feature", "properties": { "diocese_name": "Ossory", "country": "Ireland", "count": 3.0 }, "geometry": { "type": "Point", "coordinates": [ -7.5838857, 52.85449 ] } },
{ "type": "Feature", "properties": { "diocese_name": "Génova", "country": "Italy", "count": 3.0 }, "geometry": { "type": "Point", "coordinates": [ 8.933863, 44.40726 ] } },
{ "type": "Feature", "properties": { "diocese_name": "Novigrad", "country": "Croacia", "count": 3.0 }, "geometry": { "type": "Point", "coordinates": [ 13.564945, 45.316853 ] } },
{ "type": "Feature", "properties": { "diocese_name": "Bosa", "country": "Italy", "count": 3.0 }, "geometry": { "type": "Point", "coordinates": [ 8.498612, 40.297005 ] } },
{ "type": "Feature", "properties": { "diocese_name": "Santiago de Cuba", "country": "Cuba", "count": 3.0 }, "geometry": { "type": "Point", "coordinates": [ -75.828995, 20.028893 ] } },
{ "type": "Feature", "properties": { "diocese_name": "Alessandria", "country": "Italy", "count": 3.0 }, "geometry": { "type": "Point", "coordinates": [ 8.615321, 44.91292 ] } },
{ "type": "Feature", "properties": { "diocese_name": "Valencia", "country": "Spain", "count": 3.0 }, "geometry": { "type": "Point", "coordinates": [ -0.3759512, 39.469902 ] } },
{ "type": "Feature", "properties": { "diocese_name": "Guadix", "country": "Spain", "count": 3.0 }, "geometry": { "type": "Point", "coordinates": [ -3.1351955, 37.30069 ] } },
{ "type": "Feature", "properties": { "diocese_name": "Hvar", "country": "Croacia", "count": 3.0 }, "geometry": { "type": "Point", "coordinates": [ 16.556473, 43.17398 ] } },
{ "type": "Feature", "properties": { "diocese_name": "Cuzco", "country": "Peru", "count": 3.0 }, "geometry": { "type": "Point", "coordinates": [ -71.97125, -13.521365 ] } },
{ "type": "Feature", "properties": { "diocese_name": "Lanciano", "country": "Italy", "count": 3.0 }, "geometry": { "type": "Point", "coordinates": [ 14.3907795, 42.23053 ] } },
{ "type": "Feature", "properties": { "diocese_name": "Chios", "country": "Greece", "count": 3.0 }, "geometry": { "type": "Point", "coordinates": [ 26.064655, 38.375813 ] } },
{ "type": "Feature", "properties": { "diocese_name": "Ragusa", "country": "Croacia", "count": 3.0 }, "geometry": { "type": "Point", "coordinates": [ 18.089918, 42.650043 ] } },
{ "type": "Feature", "properties": { "diocese_name": "Sarno", "country": "Italy", "count": 3.0 }, "geometry": { "type": "Point", "coordinates": [ 14.619839, 40.81081 ] } },
{ "type": "Feature", "properties": { "diocese_name": "Bogotá", "country": "Colombia", "count": 3.0 }, "geometry": { "type": "Point", "coordinates": [ -74.0761, 4.5980773 ] } },
{ "type": "Feature", "properties": { "diocese_name": "Polignano", "country": "Italy", "count": 3.0 }, "geometry": { "type": "Point", "coordinates": [ 17.219585, 40.996117 ] } },
{ "type": "Feature", "properties": { "diocese_name": "Quito", "country": "Ecuador", "count": 3.0 }, "geometry": { "type": "Point", "coordinates": [ -78.51233, -0.2201641 ] } },
{ "type": "Feature", "properties": { "diocese_name": "Málaga", "country": "Spain", "count": 3.0 }, "geometry": { "type": "Point", "coordinates": [ -4.4220023, 36.721085 ] } },
{ "type": "Feature", "properties": { "diocese_name": "Mottola", "country": "Italy", "count": 3.0 }, "geometry": { "type": "Point", "coordinates": [ 17.037195, 40.633224 ] } },
{ "type": "Feature", "properties": { "diocese_name": "Casale Monferrato", "country": "Italy", "count": 3.0 }, "geometry": { "type": "Point", "coordinates": [ 8.449813, 45.136265 ] } },
{ "type": "Feature", "properties": { "diocese_name": "Melfi", "country": "Italy", "count": 2.0 }, "geometry": { "type": "Point", "coordinates": [ 15.655636, 40.996197 ] } },
{ "type": "Feature", "properties": { "diocese_name": "Shkodrë–Pult", "country": "Albania", "count": 2.0 }, "geometry": { "type": "Point", "coordinates": [ 19.5131, 42.069603 ] } },
{ "type": "Feature", "properties": { "diocese_name": "Buenos Aires", "country": "Argentina", "count": 2.0 }, "geometry": { "type": "Point", "coordinates": [ -58.393097, -34.645237 ] } },
{ "type": "Feature", "properties": { "diocese_name": "Bova", "country": "Italy", "count": 2.0 }, "geometry": { "type": "Point", "coordinates": [ 15.931901, 37.995068 ] } },
{ "type": "Feature", "properties": { "diocese_name": "Cádiz", "country": "Spain", "count": 2.0 }, "geometry": { "type": "Point", "coordinates": [ -6.2925677, 36.52983 ] } },
{ "type": "Feature", "properties": { "diocese_name": "Avignon", "country": "France", "count": 2.0 }, "geometry": { "type": "Point", "coordinates": [ 4.806033, 43.949314 ] } },
{ "type": "Feature", "properties": { "diocese_name": "Benevento", "country": "Italy", "count": 2.0 }, "geometry": { "type": "Point", "coordinates": [ 14.782464, 41.12956 ] } },
{ "type": "Feature", "properties": { "diocese_name": "Mexico", "country": "Mexico", "count": 2.0 }, "geometry": { "type": "Point", "coordinates": [ -99.14, 19.41 ] } },
{ "type": "Feature", "properties": { "diocese_name": "Potenza", "country": "Italy", "count": 2.0 }, "geometry": { "type": "Point", "coordinates": [ 15.802208, 40.638405 ] } },
{ "type": "Feature", "properties": { "diocese_name": "Šibenik", "country": "Croacia", "count": 2.0 }, "geometry": { "type": "Point", "coordinates": [ 15.900217, 43.733173 ] } },
{ "type": "Feature", "properties": { "diocese_name": "Laodicea in Phrygia", "country": "Turkey", "count": 2.0 }, "geometry": { "type": "Point", "coordinates": [ 29.107153, 37.836895 ] } },
{ "type": "Feature", "properties": { "diocese_name": "Bisignano", "country": "Italy", "count": 2.0 }, "geometry": { "type": "Point", "coordinates": [ 16.274462, 39.5002 ] } },
{ "type": "Feature", "properties": { "diocese_name": "Arequipa", "country": "Peru", "count": 2.0 }, "geometry": { "type": "Point", "coordinates": [ -71.536964, -16.398865 ] } },
{ "type": "Feature", "properties": { "diocese_name": "Clonmacnois", "country": "Ireland", "count": 2.0 }, "geometry": { "type": "Point", "coordinates": [ -7.987121, 53.326088 ] } },
{ "type": "Feature", "properties": { "diocese_name": "Mallorca", "country": "Spain", "count": 2.0 }, "geometry": { "type": "Point", "coordinates": [ 2.6500745, 39.56958 ] } },
{ "type": "Feature", "properties": { "diocese_name": "Scala", "country": "Italy", "count": 2.0 }, "geometry": { "type": "Point", "coordinates": [ 14.607793, 40.653614 ] } },
{ "type": "Feature", "properties": { "diocese_name": "Trani", "country": "Italy", "count": 2.0 }, "geometry": { "type": "Point", "coordinates": [ 16.416258, 41.27509 ] } },
{ "type": "Feature", "properties": { "diocese_name": "Trujillo", "country": "Peru", "count": 2.0 }, "geometry": { "type": "Point", "coordinates": [ -79.02877, -8.111678 ] } },
{ "type": "Feature", "properties": { "diocese_name": "Krk", "country": "Croacia", "count": 2.0 }, "geometry": { "type": "Point", "coordinates": [ 14.549668, 45.090195 ] } },
{ "type": "Feature", "properties": { "diocese_name": "Marsico Nuovo", "country": "Italy", "count": 2.0 }, "geometry": { "type": "Point", "coordinates": [ 15.734868, 40.42301 ] } },
{ "type": "Feature", "properties": { "diocese_name": "Christopolis", "country": "Greece", "count": 2.0 }, "geometry": { "type": "Point", "coordinates": [ 24.311472, 40.873184 ] } },
{ "type": "Feature", "properties": { "diocese_name": "Leiria", "country": "Portugal", "count": 2.0 }, "geometry": { "type": "Point", "coordinates": [ -8.808037, 39.744537 ] } },
{ "type": "Feature", "properties": { "diocese_name": "Funchal", "country": "Portugal", "count": 2.0 }, "geometry": { "type": "Point", "coordinates": [ -16.908678, 32.64965 ] } },
{ "type": "Feature", "properties": { "diocese_name": "Isola", "country": "Italy", "count": 2.0 }, "geometry": { "type": "Point", "coordinates": [ 17.093315, 38.95999 ] } },
{ "type": "Feature", "properties": { "diocese_name": "Termoli", "country": "Italy", "count": 2.0 }, "geometry": { "type": "Point", "coordinates": [ 14.993937, 41.99833 ] } },
{ "type": "Feature", "properties": { "diocese_name": "Brugnato", "country": "Italy", "count": 2.0 }, "geometry": { "type": "Point", "coordinates": [ 9.724035, 44.237095 ] } },
{ "type": "Feature", "properties": { "diocese_name": "Achonry", "country": "Ireland", "count": 2.0 }, "geometry": { "type": "Point", "coordinates": [ -8.578865, 53.901367 ] } },
{ "type": "Feature", "properties": { "diocese_name": "Comayagua", "country": "Honduras", "count": 2.0 }, "geometry": { "type": "Point", "coordinates": [ -87.67795, 14.555096 ] } },
{ "type": "Feature", "properties": { "diocese_name": "Cebú", "country": "Philippines", "count": 2.0 }, "geometry": { "type": "Point", "coordinates": [ 123.89308, 10.30903 ] } },
{ "type": "Feature", "properties": { "diocese_name": "Como", "country": "Italy", "count": 2.0 }, "geometry": { "type": "Point", "coordinates": [ 9.086303, 45.81068 ] } },
{ "type": "Feature", "properties": { "diocese_name": "Aleria", "country": "Italy", "count": 2.0 }, "geometry": { "type": "Point", "coordinates": [ 12.290085, 41.727398 ] } },
{ "type": "Feature", "properties": { "diocese_name": "Strongoli", "country": "Italy", "count": 2.0 }, "geometry": { "type": "Point", "coordinates": [ 17.052025, 39.263958 ] } },
{ "type": "Feature", "properties": { "diocese_name": "Ceuta", "country": "Spain", "count": 2.0 }, "geometry": { "type": "Point", "coordinates": [ -5.304138, 35.888363 ] } },
{ "type": "Feature", "properties": { "diocese_name": "Lettere", "country": "Italy", "count": 2.0 }, "geometry": { "type": "Point", "coordinates": [ 14.544939, 40.70491 ] } },
{ "type": "Feature", "properties": { "diocese_name": "Bertinoro", "country": "Italy", "count": 2.0 }, "geometry": { "type": "Point", "coordinates": [ 12.134235, 44.148666 ] } },
{ "type": "Feature", "properties": { "diocese_name": "Lydda", "country": "Israel", "count": 2.0 }, "geometry": { "type": "Point", "coordinates": [ 34.884777, 31.942726 ] } },
{ "type": "Feature", "properties": { "diocese_name": "Meath", "country": "Ireland", "count": 2.0 }, "geometry": { "type": "Point", "coordinates": [ -6.5885296, 53.649784 ] } },
{ "type": "Feature", "properties": { "diocese_name": "Taranto", "country": "Italy", "count": 2.0 }, "geometry": { "type": "Point", "coordinates": [ 17.243227, 40.47124 ] } },
{ "type": "Feature", "properties": { "diocese_name": "Ayacucho", "country": "Peru", "count": 2.0 }, "geometry": { "type": "Point", "coordinates": [ -74.2257, -13.160427 ] } },
{ "type": "Feature", "properties": { "diocese_name": "San Marco Argentano-Scalea", "country": "Italy", "count": 2.0 }, "geometry": { "type": "Point", "coordinates": [ 16.120087, 39.558296 ] } },
{ "type": "Feature", "properties": { "diocese_name": "Nemosia (Limasol)", "country": "Cyprus", "count": 2.0 }, "geometry": { "type": "Point", "coordinates": [ 33.04234, 34.673565 ] } },
{ "type": "Feature", "properties": { "diocese_name": "Gaeta", "country": "Italy", "count": 2.0 }, "geometry": { "type": "Point", "coordinates": [ 13.56281, 41.21831 ] } },
{ "type": "Feature", "properties": { "diocese_name": "Nepi", "country": "Italy", "count": 2.0 }, "geometry": { "type": "Point", "coordinates": [ 12.34557, 42.242825 ] } },
{ "type": "Feature", "properties": { "diocese_name": "Nisyros", "country": "Greece", "count": 2.0 }, "geometry": { "type": "Point", "coordinates": [ 27.169184, 36.589046 ] } },
{ "type": "Feature", "properties": { "diocese_name": "Acerenza", "country": "Italy", "count": 2.0 }, "geometry": { "type": "Point", "coordinates": [ 15.936568, 40.79212 ] } },
{ "type": "Feature", "properties": { "diocese_name": "Almería", "country": "Spain", "count": 2.0 }, "geometry": { "type": "Point", "coordinates": [ -2.4628134, 36.84142 ] } },
{ "type": "Feature", "properties": { "diocese_name": "Marseille", "country": "France", "count": 2.0 }, "geometry": { "type": "Point", "coordinates": [ 5.3699527, 43.296173 ] } },
{ "type": "Feature", "properties": { "diocese_name": "Andros", "country": "Greece", "count": 2.0 }, "geometry": { "type": "Point", "coordinates": [ 24.862413, 37.840843 ] } },
{ "type": "Feature", "properties": { "diocese_name": "Viseu", "country": "Portugal", "count": 2.0 }, "geometry": { "type": "Point", "coordinates": [ -7.9138665, 40.65747 ] } },
{ "type": "Feature", "properties": { "diocese_name": "Lérida", "country": "Spain", "count": 2.0 }, "geometry": { "type": "Point", "coordinates": [ 0.6267842, 41.61476 ] } },
{ "type": "Feature", "properties": { "diocese_name": "Albi", "country": "France", "count": 2.0 }, "geometry": { "type": "Point", "coordinates": [ 2.147899, 43.927753 ] } },
{ "type": "Feature", "properties": { "diocese_name": "Bitonto", "country": "Italy", "count": 2.0 }, "geometry": { "type": "Point", "coordinates": [ 16.691547, 41.108498 ] } },
{ "type": "Feature", "properties": { "diocese_name": "Caserta", "country": "Italy", "count": 2.0 }, "geometry": { "type": "Point", "coordinates": [ 14.334708, 41.08208 ] } },
{ "type": "Feature", "properties": { "diocese_name": "Alba Pompeia", "country": "Italy", "count": 2.0 }, "geometry": { "type": "Point", "coordinates": [ 8.025636, 44.691544 ] } },
{ "type": "Feature", "properties": { "diocese_name": "San Leone", "country": "Italy", "count": 2.0 }, "geometry": { "type": "Point", "coordinates": [ 14.832921, 38.006756 ] } },
{ "type": "Feature", "properties": { "diocese_name": "Vico Equense", "country": "Italy", "count": 2.0 }, "geometry": { "type": "Point", "coordinates": [ 14.426644, 40.663486 ] } },
{ "type": "Feature", "properties": { "diocese_name": "Miranda", "country": "Portugal", "count": 2.0 }, "geometry": { "type": "Point", "coordinates": [ -6.271331, 41.50008 ] } },
{ "type": "Feature", "properties": { "diocese_name": "Ávila", "country": "Spain", "count": 2.0 }, "geometry": { "type": "Point", "coordinates": [ -4.7002172, 40.65648 ] } },
{ "type": "Feature", "properties": { "diocese_name": "Thagaste", "country": "Algeria", "count": 2.0 }, "geometry": { "type": "Point", "coordinates": [ 7.8262424, 36.137867 ] } },
{ "type": "Feature", "properties": { "diocese_name": "Acerno", "country": "Italy", "count": 2.0 }, "geometry": { "type": "Point", "coordinates": [ 15.056949, 40.737713 ] } },
{ "type": "Feature", "properties": { "diocese_name": "Burgos", "country": "Spain", "count": 2.0 }, "geometry": { "type": "Point", "coordinates": [ -3.696977, 42.343925 ] } },
{ "type": "Feature", "properties": { "diocese_name": "Leighlin", "country": "Ireland", "count": 2.0 }, "geometry": { "type": "Point", "coordinates": [ -7.0233107, 52.736797 ] } },
{ "type": "Feature", "properties": { "diocese_name": "Teano", "country": "Italy", "count": 2.0 }, "geometry": { "type": "Point", "coordinates": [ 14.067151, 41.251083 ] } },
{ "type": "Feature", "properties": { "diocese_name": "Vic", "country": "Spain", "count": 2.0 }, "geometry": { "type": "Point", "coordinates": [ 2.2548654, 41.92924 ] } },
{ "type": "Feature", "properties": { "diocese_name": "Patti", "country": "Italy", "count": 2.0 }, "geometry": { "type": "Point", "coordinates": [ 14.963978, 38.13821 ] } },
{ "type": "Feature", "properties": { "diocese_name": "León", "country": "Spain", "count": 2.0 }, "geometry": { "type": "Point", "coordinates": [ -5.56694, 42.59888 ] } },
{ "type": "Feature", "properties": { "diocese_name": "Ario", "country": "Greece", "count": 2.0 }, "geometry": { "type": "Point", "coordinates": [ 24.473608, 35.36765 ] } },
{ "type": "Feature", "properties": { "diocese_name": "Telese", "country": "Italy", "count": 2.0 }, "geometry": { "type": "Point", "coordinates": [ 14.527732, 41.21732 ] } },
{ "type": "Feature", "properties": { "diocese_name": "Terni", "country": "Italy", "count": 2.0 }, "geometry": { "type": "Point", "coordinates": [ 12.640547, 42.56414 ] } },
{ "type": "Feature", "properties": { "diocese_name": "Dromore", "country": "Ireland", "count": 2.0 }, "geometry": { "type": "Point", "coordinates": [ -6.337506, 54.17753 ] } },
{ "type": "Feature", "properties": { "diocese_name": "Milos", "country": "Greece", "count": 2.0 }, "geometry": { "type": "Point", "coordinates": [ 23.75, 37.97617 ] } },
{ "type": "Feature", "properties": { "diocese_name": "Palencia", "country": "Spain", "count": 2.0 }, "geometry": { "type": "Point", "coordinates": [ -4.5327854, 42.010815 ] } },
{ "type": "Feature", "properties": { "diocese_name": "Magara", "country": "Tunisia", "count": 2.0 }, "geometry": { "type": "Point", "coordinates": [ 9.201444, 35.857155 ] } },
{ "type": "Feature", "properties": { "diocese_name": "Lugo", "country": "Spain", "count": 2.0 }, "geometry": { "type": "Point", "coordinates": [ -7.456607, 43.039604 ] } },
{ "type": "Feature", "properties": { "diocese_name": "Angola", "country": "Angola", "count": 2.0 }, "geometry": { "type": "Point", "coordinates": [ 13.243667, -8.827166 ] } },
{ "type": "Feature", "properties": { "diocese_name": "Lucera", "country": "Italy", "count": 2.0 }, "geometry": { "type": "Point", "coordinates": [ 15.3376465, 41.508274 ] } },
{ "type": "Feature", "properties": { "diocese_name": "Sarda", "country": "Albania", "count": 2.0 }, "geometry": { "type": "Point", "coordinates": [ 19.651514, 42.070045 ] } },
{ "type": "Feature", "properties": { "diocese_name": "Athyra", "country": "Turkey", "count": 2.0 }, "geometry": { "type": "Point", "coordinates": [ 28.595524, 41.01569 ] } },
{ "type": "Feature", "properties": { "diocese_name": "Cagli", "country": "Italy", "count": 2.0 }, "geometry": { "type": "Point", "coordinates": [ 12.651788, 43.54574 ] } },
{ "type": "Feature", "properties": { "diocese_name": "Vulturara e Montecorvino", "country": "Italy", "count": 2.0 }, "geometry": { "type": "Point", "coordinates": [ 15.052239, 41.49603 ] } },
{ "type": "Feature", "properties": { "diocese_name": "Squillace", "country": "Italy", "count": 2.0 }, "geometry": { "type": "Point", "coordinates": [ 16.512205, 38.779484 ] } },
{ "type": "Feature", "properties": { "diocese_name": "Soana", "country": "Italy", "count": 1.0 }, "geometry": { "type": "Point", "coordinates": [ 11.646548, 42.657005 ] } },
{ "type": "Feature", "properties": { "diocese_name": "Castellammare di Stabia", "country": "Italy", "count": 1.0 }, "geometry": { "type": "Point", "coordinates": [ 14.480481, 40.694305 ] } },
{ "type": "Feature", "properties": { "diocese_name": "Split-Makarska", "country": "Croacia", "count": 1.0 }, "geometry": { "type": "Point", "coordinates": [ 16.43968, 43.511555 ] } },
{ "type": "Feature", "properties": { "diocese_name": "Pula", "country": "Croacia", "count": 1.0 }, "geometry": { "type": "Point", "coordinates": [ 13.845545, 44.869625 ] } },
{ "type": "Feature", "properties": { "diocese_name": "Roermond", "country": "Netherlands", "count": 1.0 }, "geometry": { "type": "Point", "coordinates": [ 6.0039515, 51.19278 ] } },
{ "type": "Feature", "properties": { "diocese_name": "Belcastro", "country": "Italy", "count": 1.0 }, "geometry": { "type": "Point", "coordinates": [ 16.786407, 39.01799 ] } },
{ "type": "Feature", "properties": { "diocese_name": "Sodor", "country": "Great Britain", "count": 1.0 }, "geometry": { "type": "Point", "coordinates": [ -4.691, 54.221 ] } },
{ "type": "Feature", "properties": { "diocese_name": "Porto", "country": "Portugal", "count": 1.0 }, "geometry": { "type": "Point", "coordinates": [ -8.610788, 41.149452 ] } },
{ "type": "Feature", "properties": { "diocese_name": "Santiago de Chile", "country": "Chile", "count": 1.0 }, "geometry": { "type": "Point", "coordinates": [ -70.650444, -33.437798 ] } },
{ "type": "Feature", "properties": { "diocese_name": "Spoleto", "country": "Italy", "count": 1.0 }, "geometry": { "type": "Point", "coordinates": [ 12.736336, 42.73551 ] } },
{ "type": "Feature", "properties": { "diocese_name": "Aquino", "country": "Italy", "count": 1.0 }, "geometry": { "type": "Point", "coordinates": [ 13.70471, 41.49112 ] } },
{ "type": "Feature", "properties": { "diocese_name": "Argos", "country": "Greece", "count": 1.0 }, "geometry": { "type": "Point", "coordinates": [ 22.808079, 37.5697 ] } },
{ "type": "Feature", "properties": { "diocese_name": "Oropus", "country": "Turkey", "count": 1.0 }, "geometry": { "type": "Point", "coordinates": [ 33.9252, 36.58 ] } },
{ "type": "Feature", "properties": { "diocese_name": "Città della Pieve", "country": "Italy", "count": 1.0 }, "geometry": { "type": "Point", "coordinates": [ 12.004326, 42.952732 ] } },
{ "type": "Feature", "properties": { "diocese_name": "Fiesole", "country": "Italy", "count": 1.0 }, "geometry": { "type": "Point", "coordinates": [ 11.293074, 43.806667 ] } },
{ "type": "Feature", "properties": { "diocese_name": "Chiemsee", "country": "Germany", "count": 1.0 }, "geometry": { "type": "Point", "coordinates": [ 11.228552, 48.733913 ] } },
{ "type": "Feature", "properties": { "diocese_name": "Ceos and Thermia", "country": "Greece", "count": 1.0 }, "geometry": { "type": "Point", "coordinates": [ 24.327488, 37.60475 ] } },
{ "type": "Feature", "properties": { "diocese_name": "Lima", "country": "Peru", "count": 1.0 }, "geometry": { "type": "Point", "coordinates": [ -77.033, -12.05 ] } },
{ "type": "Feature", "properties": { "diocese_name": "Killala", "country": "Ireland", "count": 1.0 }, "geometry": { "type": "Point", "coordinates": [ -9.15321, 54.114334 ] } },
{ "type": "Feature", "properties": { "diocese_name": "Calvi", "country": "Italy", "count": 1.0 }, "geometry": { "type": "Point", "coordinates": [ 14.128731, 41.216537 ] } },
{ "type": "Feature", "properties": { "diocese_name": "Teramo-Atri", "country": "Italy", "count": 1.0 }, "geometry": { "type": "Point", "coordinates": [ 13.698353, 42.66129 ] } },
{ "type": "Feature", "properties": { "diocese_name": "Mondovì", "country": "Italy", "count": 1.0 }, "geometry": { "type": "Point", "coordinates": [ 7.8205113, 44.390057 ] } },
{ "type": "Feature", "properties": { "diocese_name": "Imola", "country": "Italy", "count": 1.0 }, "geometry": { "type": "Point", "coordinates": [ 11.714124, 44.353516 ] } },
{ "type": "Feature", "properties": { "diocese_name": "Limerick", "country": "Ireland", "count": 1.0 }, "geometry": { "type": "Point", "coordinates": [ -8.630124, 52.66125 ] } },
{ "type": "Feature", "properties": { "diocese_name": "Senj", "country": "Croacia", "count": 1.0 }, "geometry": { "type": "Point", "coordinates": [ 14.903056, 44.989735 ] } },
{ "type": "Feature", "properties": { "diocese_name": "Pamplona", "country": "Spain", "count": 1.0 }, "geometry": { "type": "Point", "coordinates": [ -1.6444165, 42.81855 ] } },
{ "type": "Feature", "properties": { "diocese_name": "Tuy", "country": "Spain", "count": 1.0 }, "geometry": { "type": "Point", "coordinates": [ -8.644355, 42.05 ] } },
{ "type": "Feature", "properties": { "diocese_name": "Vienna", "country": "Austria", "count": 1.0 }, "geometry": { "type": "Point", "coordinates": [ 16.372503, 48.208355 ] } },
{ "type": "Feature", "properties": { "diocese_name": "Rieti", "country": "Italy", "count": 1.0 }, "geometry": { "type": "Point", "coordinates": [ 12.862999, 42.40169 ] } },
{ "type": "Feature", "properties": { "diocese_name": "Fano", "country": "Italy", "count": 1.0 }, "geometry": { "type": "Point", "coordinates": [ 13.014663, 43.84242 ] } },
{ "type": "Feature", "properties": { "diocese_name": "Venafro", "country": "Italy", "count": 1.0 }, "geometry": { "type": "Point", "coordinates": [ 14.045112, 41.483425 ] } },
{ "type": "Feature", "properties": { "diocese_name": "Umbriatico", "country": "Italy", "count": 1.0 }, "geometry": { "type": "Point", "coordinates": [ 16.918709, 39.3545 ] } },
{ "type": "Feature", "properties": { "diocese_name": "Chieti", "country": "Italy", "count": 1.0 }, "geometry": { "type": "Point", "coordinates": [ 14.165974, 42.344654 ] } },
{ "type": "Feature", "properties": { "diocese_name": "Bari", "country": "Italy", "count": 1.0 }, "geometry": { "type": "Point", "coordinates": [ 16.86203, 41.125786 ] } },
{ "type": "Feature", "properties": { "diocese_name": "Narbona", "country": "France", "count": 1.0 }, "geometry": { "type": "Point", "coordinates": [ 3.0043128, 43.182804 ] } },
{ "type": "Feature", "properties": { "diocese_name": "Gallese", "country": "Italy", "count": 1.0 }, "geometry": { "type": "Point", "coordinates": [ 12.402804, 42.373287 ] } },
{ "type": "Feature", "properties": { "diocese_name": "Catanzaro", "country": "Italy", "count": 1.0 }, "geometry": { "type": "Point", "coordinates": [ 16.596046, 38.907635 ] } },
{ "type": "Feature", "properties": { "diocese_name": "Olena", "country": "Greece", "count": 1.0 }, "geometry": { "type": "Point", "coordinates": [ 21.55, 37.733334 ] } },
{ "type": "Feature", "properties": { "diocese_name": "Monteverde", "country": "Italy", "count": 1.0 }, "geometry": { "type": "Point", "coordinates": [ 15.534157, 40.99892 ] } },
{ "type": "Feature", "properties": { "diocese_name": "Venecia", "country": "Italy", "count": 1.0 }, "geometry": { "type": "Point", "coordinates": [ 12.33459, 45.43719 ] } },
{ "type": "Feature", "properties": { "diocese_name": "Nin", "country": "Croacia", "count": 1.0 }, "geometry": { "type": "Point", "coordinates": [ 15.184026, 44.243073 ] } },
{ "type": "Feature", "properties": { "diocese_name": "Palermo", "country": "Italy", "count": 1.0 }, "geometry": { "type": "Point", "coordinates": [ 13.353442, 38.11127 ] } },
{ "type": "Feature", "properties": { "diocese_name": "Nusco", "country": "Italy", "count": 1.0 }, "geometry": { "type": "Point", "coordinates": [ 15.084003, 40.88695 ] } },
{ "type": "Feature", "properties": { "diocese_name": "Santiago de Cabo Verde", "country": "Cape Verde", "count": 1.0 }, "geometry": { "type": "Point", "coordinates": [ -23.509613, 14.916017 ] } },
{ "type": "Feature", "properties": { "diocese_name": "Segorbe", "country": "Spain", "count": 1.0 }, "geometry": { "type": "Point", "coordinates": [ -0.4895536, 39.851902 ] } },
{ "type": "Feature", "properties": { "diocese_name": "Csanád", "country": "Romania", "count": 1.0 }, "geometry": { "type": "Point", "coordinates": [ 20.5787, 46.133144 ] } },
{ "type": "Feature", "properties": { "diocese_name": "Conversano", "country": "Italy", "count": 1.0 }, "geometry": { "type": "Point", "coordinates": [ 17.113771, 40.968395 ] } },
{ "type": "Feature", "properties": { "diocese_name": "Aix-en-Provence", "country": "France", "count": 1.0 }, "geometry": { "type": "Point", "coordinates": [ 2.3826828, 45.616096 ] } },
{ "type": "Feature", "properties": { "diocese_name": "Cariati", "country": "Italy", "count": 1.0 }, "geometry": { "type": "Point", "coordinates": [ 16.947449, 39.49625 ] } },
{ "type": "Feature", "properties": { "diocese_name": "Reggio Calabria", "country": "Italy", "count": 1.0 }, "geometry": { "type": "Point", "coordinates": [ 15.639755, 38.10354 ] } },
{ "type": "Feature", "properties": { "diocese_name": "Tripolis", "country": "Libia", "count": 1.0 }, "geometry": { "type": "Point", "coordinates": [ 13.177793, 32.89667 ] } },
{ "type": "Feature", "properties": { "diocese_name": "Alessano", "country": "Italy", "count": 1.0 }, "geometry": { "type": "Point", "coordinates": [ 18.331207, 39.88968 ] } },
{ "type": "Feature", "properties": { "diocese_name": "Rennes", "country": "France", "count": 1.0 }, "geometry": { "type": "Point", "coordinates": [ -1.6800197, 48.11134 ] } },
{ "type": "Feature", "properties": { "diocese_name": "Evora", "country": "Portugal", "count": 1.0 }, "geometry": { "type": "Point", "coordinates": [ -7.909281, 38.570774 ] } },
{ "type": "Feature", "properties": { "diocese_name": "Orange", "country": "France", "count": 1.0 }, "geometry": { "type": "Point", "coordinates": [ 5.784105, 43.83179 ] } },
{ "type": "Feature", "properties": { "diocese_name": "Oviedo", "country": "Spain", "count": 1.0 }, "geometry": { "type": "Point", "coordinates": [ -5.879514, 43.353344 ] } },
{ "type": "Feature", "properties": { "diocese_name": "Kildare", "country": "Ireland", "count": 1.0 }, "geometry": { "type": "Point", "coordinates": [ -6.8184175, 53.154366 ] } },
{ "type": "Feature", "properties": { "diocese_name": "Puebla de los Ángeles", "country": "Mexico", "count": 1.0 }, "geometry": { "type": "Point", "coordinates": [ -98.167404, 19.087645 ] } },
{ "type": "Feature", "properties": { "diocese_name": "Ugento", "country": "Italy", "count": 1.0 }, "geometry": { "type": "Point", "coordinates": [ 18.157429, 39.92632 ] } },
{ "type": "Feature", "properties": { "diocese_name": "Macao", "country": "China", "count": 1.0 }, "geometry": { "type": "Point", "coordinates": [ 113.53805, 22.189945 ] } },
{ "type": "Feature", "properties": { "diocese_name": "Bobbio", "country": "Italy", "count": 1.0 }, "geometry": { "type": "Point", "coordinates": [ 9.386281, 44.76927 ] } },
{ "type": "Feature", "properties": { "diocese_name": "Policastro", "country": "Italy", "count": 1.0 }, "geometry": { "type": "Point", "coordinates": [ 15.524648, 40.07655 ] } },
{ "type": "Feature", "properties": { "diocese_name": "Monopoli", "country": "Italy", "count": 1.0 }, "geometry": { "type": "Point", "coordinates": [ 17.299948, 40.952236 ] } },
{ "type": "Feature", "properties": { "diocese_name": "Saint-Omer", "country": "France", "count": 1.0 }, "geometry": { "type": "Point", "coordinates": [ 2.2536678, 50.75199 ] } },
{ "type": "Feature", "properties": { "diocese_name": "Toledo", "country": "Spain", "count": 1.0 }, "geometry": { "type": "Point", "coordinates": [ -4.023957, 39.856068 ] } },
{ "type": "Feature", "properties": { "diocese_name": "Perugia", "country": "Italy", "count": 1.0 }, "geometry": { "type": "Point", "coordinates": [ 12.38901, 43.11196 ] } },
{ "type": "Feature", "properties": { "diocese_name": "Damascus", "country": "Syria", "count": 1.0 }, "geometry": { "type": "Point", "coordinates": [ 36.30958, 33.51307 ] } },
{ "type": "Feature", "properties": { "diocese_name": "Ivrea", "country": "Italy", "count": 1.0 }, "geometry": { "type": "Point", "coordinates": [ 7.874797, 45.46738 ] } },
{ "type": "Feature", "properties": { "diocese_name": "Gerace", "country": "Italy", "count": 1.0 }, "geometry": { "type": "Point", "coordinates": [ 16.219753, 38.27233 ] } },
{ "type": "Feature", "properties": { "diocese_name": "Manfredonia", "country": "Italy", "count": 1.0 }, "geometry": { "type": "Point", "coordinates": [ 15.909593, 41.625473 ] } },
{ "type": "Feature", "properties": { "diocese_name": "Asti", "country": "Italy", "count": 1.0 }, "geometry": { "type": "Point", "coordinates": [ 8.206887, 44.900543 ] } },
{ "type": "Feature", "properties": { "diocese_name": "Mantua", "country": "Italy", "count": 1.0 }, "geometry": { "type": "Point", "coordinates": [ 10.791719, 45.15667 ] } },
{ "type": "Feature", "properties": { "diocese_name": "Nocera Inferiore", "country": "Italy", "count": 1.0 }, "geometry": { "type": "Point", "coordinates": [ 14.64332, 40.74721 ] } },
{ "type": "Feature", "properties": { "diocese_name": "Alatri", "country": "Italy", "count": 1.0 }, "geometry": { "type": "Point", "coordinates": [ 13.342303, 41.7265 ] } },
{ "type": "Feature", "properties": { "diocese_name": "Sassari", "country": "Italy", "count": 1.0 }, "geometry": { "type": "Point", "coordinates": [ 8.5610075, 40.723263 ] } },
{ "type": "Feature", "properties": { "diocese_name": "Verona", "country": "Italy", "count": 1.0 }, "geometry": { "type": "Point", "coordinates": [ 10.992413, 45.438496 ] } },
{ "type": "Feature", "properties": { "diocese_name": "Lacedonia", "country": "Italy", "count": 1.0 }, "geometry": { "type": "Point", "coordinates": [ 15.423854, 41.051224 ] } },
{ "type": "Feature", "properties": { "diocese_name": "Minervino", "country": "Italy", "count": 1.0 }, "geometry": { "type": "Point", "coordinates": [ 16.077776, 41.085052 ] } },
{ "type": "Feature", "properties": { "diocese_name": "Braga", "country": "Portugal", "count": 1.0 }, "geometry": { "type": "Point", "coordinates": [ -8.428004, 41.55106 ] } },
{ "type": "Feature", "properties": { "diocese_name": "Città Ducale", "country": "Italy", "count": 1.0 }, "geometry": { "type": "Point", "coordinates": [ 12.948341, 42.386833 ] } },
{ "type": "Feature", "properties": { "diocese_name": "Montefeltro", "country": "San Marino", "count": 1.0 }, "geometry": { "type": "Point", "coordinates": [ 12.446699, 43.9364 ] } },
{ "type": "Feature", "properties": { "diocese_name": "Badajoz", "country": "Spain", "count": 1.0 }, "geometry": { "type": "Point", "coordinates": [ -6.9733663, 38.87647 ] } },
{ "type": "Feature", "properties": { "diocese_name": "Salpi", "country": "Italy", "count": 1.0 }, "geometry": { "type": "Point", "coordinates": [ 16.087437, 41.358852 ] } },
{ "type": "Feature", "properties": { "diocese_name": "Elvas", "country": "Portugal", "count": 1.0 }, "geometry": { "type": "Point", "coordinates": [ -7.16383, 38.8811 ] } },
{ "type": "Feature", "properties": { "diocese_name": "Vicenza", "country": "Italy", "count": 1.0 }, "geometry": { "type": "Point", "coordinates": [ 11.547882, 45.548832 ] } },
{ "type": "Feature", "properties": { "diocese_name": "Bagnoregio", "country": "Italy", "count": 1.0 }, "geometry": { "type": "Point", "coordinates": [ 12.090872, 42.62698 ] } },
{ "type": "Feature", "properties": { "diocese_name": "Ascoli Piceno", "country": "Italy", "count": 1.0 }, "geometry": { "type": "Point", "coordinates": [ 13.575467, 42.8546 ] } },
{ "type": "Feature", "properties": { "diocese_name": "Ascalon", "country": "Israel", "count": 1.0 }, "geometry": { "type": "Point", "coordinates": [ 34.573017, 31.664488 ] } },
{ "type": "Feature", "properties": { "diocese_name": "Alife", "country": "Italy", "count": 1.0 }, "geometry": { "type": "Point", "coordinates": [ 14.334026, 41.32612 ] } },
{ "type": "Feature", "properties": { "diocese_name": "Azotus", "country": "Israel", "count": 1.0 }, "geometry": { "type": "Point", "coordinates": [ 34.652992, 31.797731 ] } },
{ "type": "Feature", "properties": { "diocese_name": "Tréguier", "country": "France", "count": 1.0 }, "geometry": { "type": "Point", "coordinates": [ -3.231978, 48.784203 ] } },
{ "type": "Feature", "properties": { "diocese_name": "Tricarico", "country": "Italy", "count": 1.0 }, "geometry": { "type": "Point", "coordinates": [ 16.143618, 40.620075 ] } },
{ "type": "Feature", "properties": { "diocese_name": "Harlem", "country": "Netherlands", "count": 1.0 }, "geometry": { "type": "Point", "coordinates": [ 4.64356, 52.383705 ] } },
{ "type": "Feature", "properties": { "diocese_name": "Corfú", "country": "Greece", "count": 1.0 }, "geometry": { "type": "Point", "coordinates": [ 19.85962, 39.591335 ] } },
{ "type": "Feature", "properties": { "diocese_name": "Milevum", "country": "Algeria", "count": 1.0 }, "geometry": { "type": "Point", "coordinates": [ 6.262331, 36.451942 ] } },
{ "type": "Feature", "properties": { "diocese_name": "Citrus", "country": "Greece", "count": 1.0 }, "geometry": { "type": "Point", "coordinates": [ 22.288017, 40.091675 ] } },
{ "type": "Feature", "properties": { "diocese_name": "Larino", "country": "Italy", "count": 1.0 }, "geometry": { "type": "Point", "coordinates": [ 14.921099, 41.80557 ] } },
{ "type": "Feature", "properties": { "diocese_name": "Acci", "country": "France", "count": 1.0 }, "geometry": { "type": "Point", "coordinates": [ 9.350252, 42.4258 ] } },
{ "type": "Feature", "properties": { "diocese_name": "Nîmes", "country": "France", "count": 1.0 }, "geometry": { "type": "Point", "coordinates": [ 4.360069, 43.837425 ] } },
{ "type": "Feature", "properties": { "diocese_name": "Skopje", "country": "Macedonia", "count": 1.0 }, "geometry": { "type": "Point", "coordinates": [ 21.43165, 41.996094 ] } },
{ "type": "Feature", "properties": { "diocese_name": "Ciudad Rodrigo", "country": "Spain", "count": 1.0 }, "geometry": { "type": "Point", "coordinates": [ -6.5335183, 40.597393 ] } },
{ "type": "Feature", "properties": { "diocese_name": "Przemyśl", "country": "Poland", "count": 1.0 }, "geometry": { "type": "Point", "coordinates": [ 22.788511, 49.783554 ] } },
{ "type": "Feature", "properties": { "diocese_name": "Cava dei Tirreni", "country": "Italy", "count": 1.0 }, "geometry": { "type": "Point", "coordinates": [ 14.70631, 40.70041 ] } },
{ "type": "Feature", "properties": { "diocese_name": "Recanati", "country": "Italy", "count": 1.0 }, "geometry": { "type": "Point", "coordinates": [ 13.548601, 43.403507 ] } },
{ "type": "Feature", "properties": { "diocese_name": "Crotona", "country": "Italy", "count": 1.0 }, "geometry": { "type": "Point", "coordinates": [ 17.127195, 39.080624 ] } },
{ "type": "Feature", "properties": { "diocese_name": "Lepanto", "country": "Greece", "count": 1.0 }, "geometry": { "type": "Point", "coordinates": [ 21.8287, 38.3925 ] } },
{ "type": "Feature", "properties": { "diocese_name": "Molfetta", "country": "Italy", "count": 1.0 }, "geometry": { "type": "Point", "coordinates": [ 16.596828, 41.199245 ] } },
{ "type": "Feature", "properties": { "diocese_name": "Sessa Aurunca", "country": "Italy", "count": 1.0 }, "geometry": { "type": "Point", "coordinates": [ 13.934731, 41.236935 ] } },
{ "type": "Feature", "properties": { "diocese_name": "Tortona", "country": "Italy", "count": 1.0 }, "geometry": { "type": "Point", "coordinates": [ 8.864128, 44.89666 ] } },
{ "type": "Feature", "properties": { "diocese_name": "Armagh", "country": "Ireland", "count": 1.0 }, "geometry": { "type": "Point", "coordinates": [ -6.654043, 54.348198 ] } },
{ "type": "Feature", "properties": { "diocese_name": "Popayán", "country": "Colombia", "count": 1.0 }, "geometry": { "type": "Point", "coordinates": [ -76.606064, 2.4418516 ] } },
{ "type": "Feature", "properties": { "diocese_name": "Oppido Mamertina", "country": "Italy", "count": 1.0 }, "geometry": { "type": "Point", "coordinates": [ 15.984139, 38.293594 ] } },
{ "type": "Feature", "properties": { "diocese_name": "Montalto", "country": "Italy", "count": 1.0 }, "geometry": { "type": "Point", "coordinates": [ 13.609186, 42.989853 ] } },
{ "type": "Feature", "properties": { "diocese_name": "Bar", "country": "Montenegro", "count": 1.0 }, "geometry": { "type": "Point", "coordinates": [ 19.095453, 42.097973 ] } },
{ "type": "Feature", "properties": { "diocese_name": "Bovino", "country": "Italy", "count": 1.0 }, "geometry": { "type": "Point", "coordinates": [ 15.341249, 41.249928 ] } },
{ "type": "Feature", "properties": { "diocese_name": "Pozzuoli", "country": "Italy", "count": 1.0 }, "geometry": { "type": "Point", "coordinates": [ 14.121911, 40.822643 ] } },
{ "type": "Feature", "properties": { "diocese_name": "Agen", "country": "France", "count": 1.0 }, "geometry": { "type": "Point", "coordinates": [ 0.6176324, 44.20156 ] } },
{ "type": "Feature", "properties": { "diocese_name": "Reggio Emilia", "country": "Italy", "count": 1.0 }, "geometry": { "type": "Point", "coordinates": [ 10.630496, 44.697845 ] } },
{ "type": "Feature", "properties": { "diocese_name": "Siracusa", "country": "Italy", "count": 1.0 }, "geometry": { "type": "Point", "coordinates": [ 15.29072, 37.064613 ] } },
{ "type": "Feature", "properties": { "diocese_name": "Brindisi", "country": "Italy", "count": 1.0 }, "geometry": { "type": "Point", "coordinates": [ 17.945526, 40.63953 ] } },
{ "type": "Feature", "properties": { "diocese_name": "Châlon sur Saône", "country": "France", "count": 1.0 }, "geometry": { "type": "Point", "coordinates": [ 4.8529606, 46.7889 ] } },
{ "type": "Feature", "properties": { "diocese_name": "Mondoñedo", "country": "Spain", "count": 1.0 }, "geometry": { "type": "Point", "coordinates": [ -7.363881, 43.42967 ] } },
{ "type": "Feature", "properties": { "diocese_name": "Giovinazzo", "country": "Italy", "count": 1.0 }, "geometry": { "type": "Point", "coordinates": [ 16.671667, 41.1875 ] } },
{ "type": "Feature", "properties": { "diocese_name": "Nice", "country": "France", "count": 1.0 }, "geometry": { "type": "Point", "coordinates": [ 7.268391, 43.700935 ] } },
{ "type": "Feature", "properties": { "diocese_name": "Oristano", "country": "Italy", "count": 1.0 }, "geometry": { "type": "Point", "coordinates": [ 8.591611, 39.90595 ] } },
{ "type": "Feature", "properties": { "diocese_name": "Aosta", "country": "Italy", "count": 1.0 }, "geometry": { "type": "Point", "coordinates": [ 7.319665, 45.737087 ] } },
{ "type": "Feature", "properties": { "diocese_name": "Orvieto", "country": "Italy", "count": 1.0 }, "geometry": { "type": "Point", "coordinates": [ 12.10879, 42.718616 ] } },
{ "type": "Feature", "properties": { "diocese_name": "Concordia", "country": "Italy", "count": 1.0 }, "geometry": { "type": "Point", "coordinates": [ 10.983297, 44.913174 ] } },
{ "type": "Feature", "properties": { "diocese_name": "San Severino", "country": "Italy", "count": 1.0 }, "geometry": { "type": "Point", "coordinates": [ 13.177966, 43.229023 ] } },
{ "type": "Feature", "properties": { "diocese_name": "Ampurias", "country": "Italy", "count": 1.0 }, "geometry": { "type": "Point", "coordinates": [ 8.718313, 40.910465 ] } },
{ "type": "Feature", "properties": { "diocese_name": "'s-Hertogenbosch", "country": "Netherlands", "count": 1.0 }, "geometry": { "type": "Point", "coordinates": [ 5.2919188, 51.709953 ] } },
{ "type": "Feature", "properties": { "diocese_name": "Kilmacduagh", "country": "Ireland", "count": 1.0 }, "geometry": { "type": "Point", "coordinates": [ -8.816767, 53.06527 ] } },
{ "type": "Feature", "properties": { "diocese_name": "Megara", "country": "Greece", "count": 1.0 }, "geometry": { "type": "Point", "coordinates": [ 23.341785, 37.995255 ] } },
{ "type": "Feature", "properties": { "diocese_name": "Lutsk", "country": "Ucraine", "count": 1.0 }, "geometry": { "type": "Point", "coordinates": [ 25.320078, 50.74507 ] } },
{ "type": "Feature", "properties": { "diocese_name": "Utica", "country": "Tunisia", "count": 1.0 }, "geometry": { "type": "Point", "coordinates": [ 10.058028, 37.055775 ] } },
{ "type": "Feature", "properties": { "diocese_name": "Sapë", "country": "Albania", "count": 1.0 }, "geometry": { "type": "Point", "coordinates": [ 19.639982, 42.00745 ] } },
{ "type": "Feature", "properties": { "diocese_name": "Forlì", "country": "Italy", "count": 1.0 }, "geometry": { "type": "Point", "coordinates": [ 12.040938, 44.222603 ] } },
{ "type": "Feature", "properties": { "diocese_name": "Verdun", "country": "France", "count": 1.0 }, "geometry": { "type": "Point", "coordinates": [ 5.386728, 49.158928 ] } },
{ "type": "Feature", "properties": { "diocese_name": "Lausanne", "country": "Switzerland", "count": 1.0 }, "geometry": { "type": "Point", "coordinates": [ 6.6327024, 46.521828 ] } },
{ "type": "Feature", "properties": { "diocese_name": "Capua", "country": "Italy", "count": 1.0 }, "geometry": { "type": "Point", "coordinates": [ 14.209718, 41.107998 ] } },
{ "type": "Feature", "properties": { "diocese_name": "Nebbio", "country": "France", "count": 1.0 }, "geometry": { "type": "Point", "coordinates": [ 9.302499, 42.681293 ] } },
{ "type": "Feature", "properties": { "diocese_name": "Martirano", "country": "Italy", "count": 1.0 }, "geometry": { "type": "Point", "coordinates": [ 16.248295, 39.08119 ] } },
{ "type": "Feature", "properties": { "diocese_name": "Troyes", "country": "France", "count": 1.0 }, "geometry": { "type": "Point", "coordinates": [ 4.0746255, 48.29716 ] } },
{ "type": "Feature", "properties": { "diocese_name": "Turín", "country": "Italy", "count": 1.0 }, "geometry": { "type": "Point", "coordinates": [ 7.6824894, 45.067757 ] } },
{ "type": "Feature", "properties": { "diocese_name": "Kilfenora", "country": "Ireland", "count": 1.0 }, "geometry": { "type": "Point", "coordinates": [ -9.217001, 52.98992 ] } },
{ "type": "Feature", "properties": { "diocese_name": "Gerona", "country": "Spain", "count": 1.0 }, "geometry": { "type": "Point", "coordinates": [ 2.819944, 41.9793 ] } },
{ "type": "Feature", "properties": { "diocese_name": "Ventimiglia", "country": "Italy", "count": 1.0 }, "geometry": { "type": "Point", "coordinates": [ 7.603313, 43.791763 ] } },
{ "type": "Feature", "properties": { "diocese_name": "Cassano", "country": "Italy", "count": 1.0 }, "geometry": { "type": "Point", "coordinates": [ 16.315928, 39.785023 ] } },
{ "type": "Feature", "properties": { "diocese_name": "Norwich", "country": "Great Britain", "count": 1.0 }, "geometry": { "type": "Point", "coordinates": [ 1.29227, 52.628605 ] } },
{ "type": "Feature", "properties": { "diocese_name": "Mende", "country": "France", "count": 1.0 }, "geometry": { "type": "Point", "coordinates": [ 3.4991057, 44.518024 ] } },
{ "type": "Feature", "properties": { "diocese_name": "Praga", "country": "Czech Republic", "count": 1.0 }, "geometry": { "type": "Point", "coordinates": [ 14.42125, 50.087467 ] } },
{ "type": "Feature", "properties": { "diocese_name": "Tarazona", "country": "Spain", "count": 1.0 }, "geometry": { "type": "Point", "coordinates": [ -1.7216461, 41.90651 ] } },
{ "type": "Feature", "properties": { "diocese_name": "Lesina", "country": "Italy", "count": 1.0 }, "geometry": { "type": "Point", "coordinates": [ 15.352741, 41.85944 ] } },
{ "type": "Feature", "properties": { "diocese_name": "Andria", "country": "Italy", "count": 1.0 }, "geometry": { "type": "Point", "coordinates": [ 16.294756, 41.227673 ] } },
{ "type": "Feature", "properties": { "diocese_name": "Pićan", "country": "Croacia", "count": 1.0 }, "geometry": { "type": "Point", "coordinates": [ 14.040244, 45.203777 ] } },
{ "type": "Feature", "properties": { "diocese_name": "Castellaneta", "country": "Italy", "count": 1.0 }, "geometry": { "type": "Point", "coordinates": [ 16.936893, 40.627224 ] } },
{ "type": "Feature", "properties": { "diocese_name": "Namur", "country": "Belgium", "count": 1.0 }, "geometry": { "type": "Point", "coordinates": [ 4.866189, 50.46653 ] } },
{ "type": "Feature", "properties": { "diocese_name": "Cosenza", "country": "Italy", "count": 1.0 }, "geometry": { "type": "Point", "coordinates": [ 16.250193, 39.309994 ] } },
{ "type": "Feature", "properties": { "diocese_name": "Cesena", "country": "Italy", "count": 1.0 }, "geometry": { "type": "Point", "coordinates": [ 12.242244, 44.136353 ] } },
{ "type": "Feature", "properties": { "diocese_name": "Lodi", "country": "Italy", "count": 1.0 }, "geometry": { "type": "Point", "coordinates": [ 9.503263, 45.313896 ] } },
{ "type": "Feature", "properties": { "diocese_name": "Tropea", "country": "Italy", "count": 1.0 }, "geometry": { "type": "Point", "coordinates": [ 15.894792, 38.67538 ] } },
{ "type": "Feature", "properties": { "diocese_name": "Messina", "country": "Italy", "count": 1.0 }, "geometry": { "type": "Point", "coordinates": [ 15.554208, 38.193756 ] } },
{ "type": "Feature", "properties": { "diocese_name": "Nardò", "country": "Italy", "count": 1.0 }, "geometry": { "type": "Point", "coordinates": [ 18.030638, 40.17626 ] } },
{ "type": "Feature", "properties": { "diocese_name": "Rheon", "country": "Greece", "count": 1.0 }, "geometry": { "type": "Point", "coordinates": [ 23.911085, 38.49417 ] } },
{ "type": "Feature", "properties": { "diocese_name": "Corone", "country": "Greece", "count": 1.0 }, "geometry": { "type": "Point", "coordinates": [ 25.79375, 36.81937 ] } },
{ "type": "Feature", "properties": { "diocese_name": "Avellino", "country": "Italy", "count": 1.0 }, "geometry": { "type": "Point", "coordinates": [ 14.788877, 40.914196 ] } },
{ "type": "Feature", "properties": { "diocese_name": "Guatemala", "country": "Guatemala", "count": 1.0 }, "geometry": { "type": "Point", "coordinates": [ -89.89881, 15.635609 ] } },
{ "type": "Feature", "properties": { "diocese_name": "Grosseto", "country": "Italy", "count": 1.0 }, "geometry": { "type": "Point", "coordinates": [ 11.113739, 42.759727 ] } },
{ "type": "Feature", "properties": { "diocese_name": "Vercelli", "country": "Italy", "count": 1.0 }, "geometry": { "type": "Point", "coordinates": [ 8.422767, 45.325157 ] } },
{ "type": "Feature", "properties": { "diocese_name": "Massa Lubrense", "country": "Italy", "count": 1.0 }, "geometry": { "type": "Point", "coordinates": [ 14.345089, 40.611034 ] } },
{ "type": "Feature", "properties": { "diocese_name": "Senlis", "country": "France", "count": 1.0 }, "geometry": { "type": "Point", "coordinates": [ 2.5846581, 49.20654 ] } },
{ "type": "Feature", "properties": { "diocese_name": "Valva-Sulmona", "country": "Italy", "count": 1.0 }, "geometry": { "type": "Point", "coordinates": [ 15.269454, 40.738216 ] } },
{ "type": "Feature", "properties": { "diocese_name": "Tarragona", "country": "Spain", "count": 1.0 }, "geometry": { "type": "Point", "coordinates": [ 1.2546057, 41.117237 ] } }
]
}
