{
"type": "FeatureCollection",
"name": "italy_sf",
"features": [
{ "type": "Feature", "properties": { "url": "/bishop/bacciaia.html", "bishop_fullname": "Angelo Acciaiuoli", "order_id": 121, "order_acronym": "O.P.", "order_name_english": "Order of Friars Preachers", "order_type": "Mendicant Order", "diocese_id": 54, "diocese_name": "Aquila", "date_nomination": "1328-06-08", "date_end": "1342-06-26", "duracion": 5131, "anos": 14.06, "ordinal": 1.0, "country": "Italy" }, "geometry": { "type": "Point", "coordinates": [ 13.398152, 42.348904 ] } },
{ "type": "Feature", "properties": { "url": "/bishop/bacciaia.html", "bishop_fullname": "Angelo Acciaiuoli", "order_id": 121, "order_acronym": "O.P.", "order_name_english": "Order of Friars Preachers", "order_type": "Mendicant Order", "diocese_id": 109, "diocese_name": "Florencia", "date_nomination": "1342-06-26", "date_end": "1355-03-18", "duracion": 4648, "anos": 12.73, "ordinal": 2.0, "country": "Italy" }, "geometry": { "type": "Point", "coordinates": [ 11.255576, 43.76987 ] } },
{ "type": "Feature", "properties": { "url": "/bishop/bardingm.html", "bishop_fullname": "Marco Ardinghelli", "order_id": 121, "order_acronym": "O.P.", "order_name_english": "Order of Friars Preachers", "order_type": "Mendicant Order", "diocese_id": 384, "diocese_name": "Penne", "date_nomination": "1352-11-05", "date_end": "1360-01-31", "duracion": 2643, "anos": 7.24, "ordinal": 1.0, "country": "Italy" }, "geometry": { "type": "Point", "coordinates": [ 13.929901, 42.453842 ] } },
{ "type": "Feature", "properties": { "url": "/bishop/bardingm.html", "bishop_fullname": "Marco Ardinghelli", "order_id": 121, "order_acronym": "O.P.", "order_name_english": "Order of Friars Preachers", "order_type": "Mendicant Order", "diocese_id": 123, "diocese_name": "Camerino", "date_nomination": "1360-01-31", "date_end": "1373-01-01", "duracion": 4719, "anos": 12.93, "ordinal": 2.0, "country": "Italy" }, "geometry": { "type": "Point", "coordinates": [ 13.068309, 43.135765 ] } },
{ "type": "Feature", "properties": { "url": "/bishop/bbalarr.html", "bishop_fullname": "Giacomo Balardi Arrigoni", "order_id": 121, "order_acronym": "O.P.", "order_name_english": "Order of Friars Preachers", "order_type": "Mendicant Order", "diocese_id": 282, "diocese_name": "Lodi", "date_nomination": "1407-02-26", "date_end": "1418-01-10", "duracion": 3971, "anos": 10.88, "ordinal": 1.0, "country": "Italy" }, "geometry": { "type": "Point", "coordinates": [ 9.503263, 45.313896 ] } },
{ "type": "Feature", "properties": { "url": "/bishop/bbalarr.html", "bishop_fullname": "Giacomo Balardi Arrigoni", "order_id": 121, "order_acronym": "O.P.", "order_name_english": "Order of Friars Preachers", "order_type": "Mendicant Order", "diocese_id": 779, "diocese_name": "Trieste", "date_nomination": "1418-01-10", "date_end": "1424-12-11", "duracion": 2527, "anos": 6.92, "ordinal": 2.0, "country": "Italy" }, "geometry": { "type": "Point", "coordinates": [ 13.770656, 45.650032 ] } },
{ "type": "Feature", "properties": { "url": "/bishop/bbrunoe.html", "bishop_fullname": "Enrico Bruno", "order_id": 121, "order_acronym": "O.P.", "order_name_english": "Order of Friars Preachers", "order_type": "Mendicant Order", "diocese_id": 167, "diocese_name": "Civita Castellana", "date_nomination": "1492-10-29", "date_end": "1498-09-24", "duracion": 2156, "anos": 5.91, "ordinal": 1.0, "country": "Italy" }, "geometry": { "type": "Point", "coordinates": [ 12.40917, 42.295227 ] } },
{ "type": "Feature", "properties": { "url": "/bishop/bbrunoe.html", "bishop_fullname": "Enrico Bruno", "order_id": 121, "order_acronym": "O.P.", "order_name_english": "Order of Friars Preachers", "order_type": "Mendicant Order", "diocese_id": 775, "diocese_name": "Taranto", "date_nomination": "1498-09-24", "date_end": "1509-01-01", "duracion": 3751, "anos": 10.28, "ordinal": 2.0, "country": "Italy" }, "geometry": { "type": "Point", "coordinates": [ 17.243227, 40.47124 ] } },
{ "type": "Feature", "properties": { "url": "/bishop/bfajad.html", "bishop_fullname": "Felice Fajadelli", "order_id": 121, "order_acronym": "O.P.", "order_name_english": "Order of Friars Preachers", "order_type": "Mendicant Order", "diocese_id": 117, "diocese_name": "Gaeta", "date_nomination": "1441-01-24", "date_end": "1444-01-01", "duracion": 1072, "anos": 2.94, "ordinal": 1.0, "country": "Italy" }, "geometry": { "type": "Point", "coordinates": [ 13.56281, 41.21831 ] } },
{ "type": "Feature", "properties": { "url": "/bishop/bfajad.html", "bishop_fullname": "Felice Fajadelli", "order_id": 121, "order_acronym": "O.P.", "order_name_english": "Order of Friars Preachers", "order_type": "Mendicant Order", "diocese_id": 413, "diocese_name": "Castellammare di Stabia", "date_nomination": "1444-12-24", "date_end": "1446-01-01", "duracion": 373, "anos": 1.02, "ordinal": 2.0, "country": "Italy" }, "geometry": { "type": "Point", "coordinates": [ 14.480481, 40.694305 ] } },
{ "type": "Feature", "properties": { "url": "/bishop/bferrob.html", "bishop_fullname": "Bartolomeo Ferro", "order_id": 121, "order_acronym": "O.P.", "order_name_english": "Order of Friars Preachers", "order_type": "Mendicant Order", "diocese_id": 304, "diocese_name": "Lettere", "date_nomination": "1567-09-19", "date_end": "1570-05-10", "duracion": 964, "anos": 2.64, "ordinal": 1.0, "country": "Italy" }, "geometry": { "type": "Point", "coordinates": [ 14.544939, 40.70491 ] } },
{ "type": "Feature", "properties": { "url": "/bishop/bferrob.html", "bishop_fullname": "Bartolomeo Ferro", "order_id": 121, "order_acronym": "O.P.", "order_name_english": "Order of Friars Preachers", "order_type": "Mendicant Order", "diocese_id": 271, "diocese_name": "Terni", "date_nomination": "1570-05-10", "date_end": "1581-01-01", "duracion": 3889, "anos": 10.65, "ordinal": 2.0, "country": "Italy" }, "geometry": { "type": "Point", "coordinates": [ 12.640547, 42.56414 ] } },
{ "type": "Feature", "properties": { "url": "/bishop/bgardar.html", "bishop_fullname": "Juan Garcia de Aragón", "order_id": 121, "order_acronym": "O.P.", "order_name_english": "Order of Friars Preachers", "order_type": "Mendicant Order", "diocese_id": 822, "diocese_name": "Terralba", "date_nomination": "1439-07-01", "date_end": "1444-10-05", "duracion": 1923, "anos": 5.27, "ordinal": 1.0, "country": "Italy" }, "geometry": { "type": "Point", "coordinates": [ 8.636126, 39.720303 ] } },
{ "type": "Feature", "properties": { "url": "/bishop/bgardar.html", "bishop_fullname": "Juan Garcia de Aragón", "order_id": 121, "order_acronym": "O.P.", "order_name_english": "Order of Friars Preachers", "order_type": "Mendicant Order", "diocese_id": 771, "diocese_name": "Siracusa", "date_nomination": "1444-10-05", "date_end": "1446-02-03", "duracion": 486, "anos": 1.33, "ordinal": 2.0, "country": "Italy" }, "geometry": { "type": "Point", "coordinates": [ 15.29072, 37.064613 ] } },
{ "type": "Feature", "properties": { "url": "/bishop/bgerardtr.html", "bishop_fullname": "Gerard", "order_id": 121, "order_acronym": "O.P.", "order_name_english": "Order of Friars Preachers", "order_type": "Mendicant Order", "diocese_id": 849, "diocese_name": "Trevico", "date_nomination": "1344-01-01", "date_end": "1346-11-17", "duracion": 1051, "anos": 2.88, "ordinal": 1.0, "country": "Italy" }, "geometry": { "type": "Point", "coordinates": [ 15.233449, 41.04842 ] } },
{ "type": "Feature", "properties": { "url": "/bishop/bgerardtr.html", "bishop_fullname": "Gerard", "order_id": 121, "order_acronym": "O.P.", "order_name_english": "Order of Friars Preachers", "order_type": "Mendicant Order", "diocese_id": 401, "diocese_name": "Rapolla", "date_nomination": "1346-11-17", "date_end": "1348-01-01", "duracion": 410, "anos": 1.12, "ordinal": 2.0, "country": "Italy" }, "geometry": { "type": "Point", "coordinates": [ 15.67126, 40.975723 ] } },
{ "type": "Feature", "properties": { "url": "/bishop/bghis.html", "bishop_fullname": "St. Antonio (Michele) Ghislieri", "order_id": 121, "order_acronym": "O.P.", "order_name_english": "Order of Friars Preachers", "order_type": "Mendicant Order", "diocese_id": 357, "diocese_name": "Nepi", "date_nomination": "1556-09-04", "date_end": "1560-03-27", "duracion": 1300, "anos": 3.56, "ordinal": 1.0, "country": "Italy" }, "geometry": { "type": "Point", "coordinates": [ 12.34557, 42.242825 ] } },
{ "type": "Feature", "properties": { "url": "/bishop/bghis.html", "bishop_fullname": "St. Antonio (Michele) Ghislieri", "order_id": 121, "order_acronym": "O.P.", "order_name_english": "Order of Friars Preachers", "order_type": "Mendicant Order", "diocese_id": 349, "diocese_name": "Mondovì", "date_nomination": "1560-03-27", "date_end": "1566-01-07", "duracion": 2112, "anos": 5.79, "ordinal": 2.0, "country": "Italy" }, "geometry": { "type": "Point", "coordinates": [ 7.8205113, 44.390057 ] } },
{ "type": "Feature", "properties": { "url": "/bishop/bgiustant.html", "bishop_fullname": "Antonio Giustiniani", "order_id": 121, "order_acronym": "O.P.", "order_name_english": "Order of Friars Preachers", "order_type": "Mendicant Order", "diocese_id": 302, "diocese_name": "Lipari", "date_nomination": "1564-05-12", "date_end": "1571-01-01", "duracion": 2425, "anos": 6.64, "ordinal": 2.0, "country": "Italy" }, "geometry": { "type": "Point", "coordinates": [ 14.939662, 38.48137 ] } },
{ "type": "Feature", "properties": { "url": "/bishop/bhere.html", "bishop_fullname": "Baltasar de Heredia", "order_id": 121, "order_acronym": "O.P.", "order_name_english": "Order of Friars Preachers", "order_type": "Mendicant Order", "diocese_id": 103, "diocese_name": "Bosa", "date_nomination": "1541-07-06", "date_end": "1548-08-31", "duracion": 2613, "anos": 7.16, "ordinal": 1.0, "country": "Italy" }, "geometry": { "type": "Point", "coordinates": [ 8.498612, 40.297005 ] } },
{ "type": "Feature", "properties": { "url": "/bishop/bhere.html", "bishop_fullname": "Baltasar de Heredia", "order_id": 121, "order_acronym": "O.P.", "order_name_english": "Order of Friars Preachers", "order_type": "Mendicant Order", "diocese_id": 211, "diocese_name": "Cagliari", "date_nomination": "1548-08-31", "date_end": "1558-04-21", "duracion": 3520, "anos": 9.64, "ordinal": 2.0, "country": "Italy" }, "geometry": { "type": "Point", "coordinates": [ 9.107905, 39.220387 ] } },
{ "type": "Feature", "properties": { "url": "/bishop/blagoria.html", "bishop_fullname": "Ludovico de Lagoria", "order_id": 121, "order_acronym": "O.P.", "order_name_english": "Order of Friars Preachers", "order_type": "Mendicant Order", "diocese_id": 120, "diocese_name": "Cagli", "date_nomination": "1503-03-08", "date_end": "1504-02-13", "duracion": 342, "anos": 0.94, "ordinal": 1.0, "country": "Italy" }, "geometry": { "type": "Point", "coordinates": [ 12.651788, 43.54574 ] } },
{ "type": "Feature", "properties": { "url": "/bishop/blagoria.html", "bishop_fullname": "Ludovico de Lagoria", "order_id": 121, "order_acronym": "O.P.", "order_name_english": "Order of Friars Preachers", "order_type": "Mendicant Order", "diocese_id": 284, "diocese_name": "Lavello", "date_nomination": "1504-02-22", "date_end": "1515-08-08", "duracion": 4185, "anos": 11.47, "ordinal": 2.0, "country": "Italy" }, "geometry": { "type": "Point", "coordinates": [ 15.790762, 41.045624 ] } },
{ "type": "Feature", "properties": { "url": "/bishop/blaurom.html", "bishop_fullname": "Marco Lauro", "order_id": 121, "order_acronym": "O.P.", "order_name_english": "Order of Friars Preachers", "order_type": "Mendicant Order", "diocese_id": 433, "diocese_name": "Satriano", "date_nomination": "1560-01-26", "date_end": "1571-01-01", "duracion": 3993, "anos": 10.94, "ordinal": 2.0, "country": "Italy" }, "geometry": { "type": "Point", "coordinates": [ 15.558963, 40.545914 ] } },
{ "type": "Feature", "properties": { "url": "/bishop/bleccav.html", "bishop_fullname": "Sebastiano Leccavella", "order_id": 121, "order_acronym": "O.P.", "order_name_english": "Order of Friars Preachers", "order_type": "Mendicant Order", "diocese_id": 304, "diocese_name": "Lettere", "date_nomination": "1562-12-16", "date_end": "1565-01-01", "duracion": 747, "anos": 2.05, "ordinal": 2.0, "country": "Italy" }, "geometry": { "type": "Point", "coordinates": [ 14.544939, 40.70491 ] } },
{ "type": "Feature", "properties": { "url": "/bishop/borsinma.html", "bishop_fullname": "Matteo Orsini", "order_id": 121, "order_acronym": "O.P.", "order_name_english": "Order of Friars Preachers", "order_type": "Mendicant Order", "diocese_id": 269, "diocese_name": "Imola", "date_nomination": "1302-01-01", "date_end": "1317-01-12", "duracion": 5490, "anos": 15.04, "ordinal": 1.0, "country": "Italy" }, "geometry": { "type": "Point", "coordinates": [ 11.714124, 44.353516 ] } },
{ "type": "Feature", "properties": { "url": "/bishop/borsinma.html", "bishop_fullname": "Matteo Orsini", "order_id": 121, "order_acronym": "O.P.", "order_name_english": "Order of Friars Preachers", "order_type": "Mendicant Order", "diocese_id": 178, "diocese_name": "Chiusi", "date_nomination": "1317-01-12", "date_end": "1322-06-15", "duracion": 1980, "anos": 5.42, "ordinal": 2.0, "country": "Italy" }, "geometry": { "type": "Point", "coordinates": [ 11.947524, 43.01605 ] } },
{ "type": "Feature", "properties": { "url": "/bishop/bpilares.html", "bishop_fullname": "Pietro Pilares", "order_id": 121, "order_acronym": "O.P.", "order_name_english": "Order of Friars Preachers", "order_type": "Mendicant Order", "diocese_id": 212, "diocese_name": "Dolia", "date_nomination": "1476-03-29", "date_end": "1484-01-01", "duracion": 2834, "anos": 7.76, "ordinal": 1.0, "country": "Italy" }, "geometry": { "type": "Point", "coordinates": [ 9.178644, 39.378242 ] } },
{ "type": "Feature", "properties": { "url": "/bishop/bpilares.html", "bishop_fullname": "Pietro Pilares", "order_id": 121, "order_acronym": "O.P.", "order_name_english": "Order of Friars Preachers", "order_type": "Mendicant Order", "diocese_id": 211, "diocese_name": "Cagliari", "date_nomination": "1484-07-13", "date_end": "1514-01-09", "duracion": 10771, "anos": 29.51, "ordinal": 2.0, "country": "Italy" }, "geometry": { "type": "Point", "coordinates": [ 9.107905, 39.220387 ] } },
{ "type": "Feature", "properties": { "url": "/bishop/bpontic.html", "bishop_fullname": "Antonio Ponticorona", "order_id": 121, "order_acronym": "O.P.", "order_name_english": "Order of Friars Preachers", "order_type": "Mendicant Order", "diocese_id": 151, "diocese_name": "Cefalù", "date_nomination": "1422-01-01", "date_end": "1445-07-23", "duracion": 8604, "anos": 23.57, "ordinal": 1.0, "country": "Italy" }, "geometry": { "type": "Point", "coordinates": [ 14.024456, 38.034958 ] } },
{ "type": "Feature", "properties": { "url": "/bishop/bpontic.html", "bishop_fullname": "Antonio Ponticorona", "order_id": 121, "order_acronym": "O.P.", "order_name_english": "Order of Friars Preachers", "order_type": "Mendicant Order", "diocese_id": 25, "diocese_name": "Agrigento", "date_nomination": "1445-07-23", "date_end": "1451-01-01", "duracion": 1988, "anos": 5.45, "ordinal": 2.0, "country": "Italy" }, "geometry": { "type": "Point", "coordinates": [ 13.57465, 37.312298 ] } },
{ "type": "Feature", "properties": { "url": "/bishop/bsalvagoa.html", "bishop_fullname": "Agostino Maria Salvago", "order_id": 121, "order_acronym": "O.P.", "order_name_english": "Order of Friars Preachers", "order_type": "Mendicant Order", "diocese_id": 16, "diocese_name": "Génova", "date_nomination": "1559-04-17", "date_end": "1567-09-30", "duracion": 3088, "anos": 8.46, "ordinal": 2.0, "country": "Italy" }, "geometry": { "type": "Point", "coordinates": [ 8.933863, 44.40726 ] } },
{ "type": "Feature", "properties": { "url": "/bishop/bstaur.html", "bishop_fullname": "Giulio Stauriano", "order_id": 121, "order_acronym": "O.P.", "order_name_english": "Order of Friars Preachers", "order_type": "Mendicant Order", "diocese_id": 104, "diocese_name": "Bova", "date_nomination": "1571-03-19", "date_end": "1577-01-01", "duracion": 2115, "anos": 5.79, "ordinal": 2.0, "country": "Italy" }, "geometry": { "type": "Point", "coordinates": [ 15.931901, 37.995068 ] } },
{ "type": "Feature", "properties": { "url": "/bishop/bvio.html", "bishop_fullname": "Tommaso (Jacopo) de Vio", "order_id": 121, "order_acronym": "O.P.", "order_name_english": "Order of Friars Preachers", "order_type": "Mendicant Order", "diocese_id": 708, "diocese_name": "Palermo", "date_nomination": "1518-02-08", "date_end": "1519-12-19", "duracion": 679, "anos": 1.86, "ordinal": 1.0, "country": "Italy" }, "geometry": { "type": "Point", "coordinates": [ 13.353442, 38.11127 ] } },
{ "type": "Feature", "properties": { "url": "/bishop/bvio.html", "bishop_fullname": "Tommaso (Jacopo) de Vio", "order_id": 121, "order_acronym": "O.P.", "order_name_english": "Order of Friars Preachers", "order_type": "Mendicant Order", "diocese_id": 117, "diocese_name": "Gaeta", "date_nomination": "1519-04-13", "date_end": "1534-08-10", "duracion": 5598, "anos": 15.34, "ordinal": 2.0, "country": "Italy" }, "geometry": { "type": "Point", "coordinates": [ 13.56281, 41.21831 ] } }
]
}
